<Root>
  <data>
    <tpl>&lt;div class="train-route-popup"&gt;&lt;div class="route"&gt;&lt;div class="head"&gt;&lt;i class="ic-train"&gt;&lt;/i&gt;&lt;i class="ic-time"&gt;&lt;/i&gt;&lt;i class="ic-station"&gt;&lt;/i&gt;&lt;/div&gt;&lt;/div&gt;&lt;div class="map-col"&gt;&lt;div class="title"&gt;&lt;div&gt;Сообщение&amp;nbsp;&lt;/div&gt;&lt;i class="close"&gt;&lt;/i&gt;&lt;/div&gt;&lt;/div&gt;&lt;/div&gt;</tpl>
    <routes>
      <train>041П</train>
      <list>
        <name>Днепр-Главный</name>
        <code>2210700</code>
        <arrivalTime>14:26</arrivalTime>
        <departureTime>14:26</departureTime>
        <distance>0</distance>
        <lat>48.478211</lat>
        <long>35.014093</long>
      </list>
      <list>
        <name>Каменское-Пассажирское</name>
        <code>2210720</code>
        <arrivalTime>14:58</arrivalTime>
        <departureTime>15:00</departureTime>
        <distance>36</distance>
        <lat>48.497254</lat>
        <long>34.604048</long>
      </list>
      <list>
        <name>Верхнеднепровск</name>
        <code>2210695</code>
        <arrivalTime>15:17</arrivalTime>
        <departureTime>15:19</departureTime>
        <distance>57</distance>
        <lat>48.552652</lat>
        <long>34.374861</long>
      </list>
      <list>
        <name>Вольногорск</name>
        <code>2210674</code>
        <arrivalTime>15:46</arrivalTime>
        <departureTime>15:48</departureTime>
        <distance>89</distance>
        <lat>48.463647</lat>
        <long>34.017053</long>
      </list>
      <list>
        <name>Пятихатки</name>
        <code>2210810</code>
        <arrivalTime>16:18</arrivalTime>
        <departureTime>16:20</departureTime>
        <distance>115</distance>
        <lat>48.42557</lat>
        <long>33.648842</long>
      </list>
      <list>
        <name>Александрия</name>
        <code>2208380</code>
        <arrivalTime>17:34</arrivalTime>
        <departureTime>17:36</departureTime>
        <distance>179</distance>
        <lat>48.673809</lat>
        <long>33.133147</long>
      </list>
      <list>
        <name>Знаменка Пассажирская</name>
        <code>2208390</code>
        <arrivalTime>18:17</arrivalTime>
        <departureTime>18:22</departureTime>
        <distance>224</distance>
        <lat>48.7102</lat>
        <long>32.689657</long>
      </list>
      <list>
        <name>Фундуклеевка</name>
        <code>2208353</code>
        <arrivalTime>19:07</arrivalTime>
        <departureTime>19:09</departureTime>
        <distance>277</distance>
        <lat>48.974058</lat>
        <long>32.250902</long>
      </list>
      <list>
        <name>Каменка</name>
        <code>2208355</code>
        <arrivalTime>19:23</arrivalTime>
        <departureTime>19:25</departureTime>
        <distance>292</distance>
        <lat>49.046971579673</lat>
        <long>32.073848785232</long>
      </list>
      <list>
        <name>Им. Т. Шевченко</name>
        <code>2208350</code>
        <arrivalTime>19:46</arrivalTime>
        <departureTime>20:01</departureTime>
        <distance>316</distance>
        <lat>49.202353</lat>
        <long>31.897271</long>
      </list>
      <list>
        <name>Городище</name>
        <code>2208099</code>
        <arrivalTime>20:44</arrivalTime>
        <departureTime>20:46</departureTime>
        <distance>365</distance>
        <lat>49.268525</lat>
        <long>31.43375</long>
      </list>
      <list>
        <name>Корсунь</name>
        <code>2208362</code>
        <arrivalTime>21:05</arrivalTime>
        <departureTime>21:07</departureTime>
        <distance>388</distance>
        <lat>49.42984</lat>
        <long>31.313905</long>
      </list>
      <list>
        <name>Мироновка</name>
        <code>2200190</code>
        <arrivalTime>21:38</arrivalTime>
        <departureTime>21:40</departureTime>
        <distance>425</distance>
        <lat>49.6482492</lat>
        <long>30.9806845</long>
      </list>
      <list>
        <name>Белая Церковь</name>
        <code>2200180</code>
        <arrivalTime>22:32</arrivalTime>
        <departureTime>22:34</departureTime>
        <distance>494</distance>
        <lat>49.812178</lat>
        <long>30.109893</long>
      </list>
      <list>
        <name>Казатин-1</name>
        <code>2200302</code>
        <arrivalTime>00:18</arrivalTime>
        <departureTime>00:30</departureTime>
        <distance>618</distance>
        <lat>49.705267189456</lat>
        <long>28.830278216258</long>
      </list>
      <list>
        <name>Винница</name>
        <code>2200200</code>
        <arrivalTime>01:25</arrivalTime>
        <departureTime>01:30</departureTime>
        <distance>682</distance>
        <lat>49.23927</lat>
        <long>28.510919</long>
      </list>
      <list>
        <name>Жмеринка</name>
        <code>2200270</code>
        <arrivalTime>02:17</arrivalTime>
        <departureTime>02:45</departureTime>
        <distance>729</distance>
        <lat>49.033118</lat>
        <long>28.11434</long>
      </list>
      <list>
        <name>Хмельницкий</name>
        <code>2200300</code>
        <arrivalTime>04:12</arrivalTime>
        <departureTime>04:31</departureTime>
        <distance>828</distance>
        <lat>49.416503</lat>
        <long>27.009933</long>
      </list>
      <list>
        <name>Подволочиск</name>
        <code>2218260</code>
        <arrivalTime>05:33</arrivalTime>
        <departureTime>05:35</departureTime>
        <distance>896</distance>
        <lat>49.529074</lat>
        <long>26.139484</long>
      </list>
      <list>
        <name>Тернополь</name>
        <code>2218300</code>
        <arrivalTime>06:22</arrivalTime>
        <departureTime>06:27</departureTime>
        <distance>947</distance>
        <lat>49.553521</lat>
        <long>25.600117</long>
      </list>
      <list>
        <name>Злочев</name>
        <code>2218185</code>
        <arrivalTime>07:25</arrivalTime>
        <departureTime>07:27</departureTime>
        <distance>1011</distance>
        <lat>49.78881</lat>
        <long>24.891445</long>
      </list>
      <list>
        <name>Львов</name>
        <code>2218000</code>
        <arrivalTime>08:32</arrivalTime>
        <departureTime>08:57</departureTime>
        <distance>1088</distance>
        <lat>49.840962</lat>
        <long>23.994334</long>
      </list>
      <list>
        <name>Дрогобыч</name>
        <code>2218155</code>
        <arrivalTime>10:29</arrivalTime>
        <departureTime>10:52</departureTime>
        <distance>1188</distance>
        <lat>49.354991</lat>
        <long>23.544062</long>
      </list>
      <list>
        <name>Трускавец</name>
        <code>2218240</code>
        <arrivalTime>11:11</arrivalTime>
        <departureTime>11:11</departureTime>
        <distance>1200</distance>
        <lat>49.282713</lat>
        <long>23.512055</long>
      </list>
    </routes>
  </data>
</Root>